{"type":"FeatureCollection","features":[{"type":"Feature","properties":{"Club":"Eastpoint mall","Address":"3 Simei Street 6 Eastpoint Mall\nSimei, Central Singapore\n","Contact":"+65 8128 0375","LAT":"1.34298264625889","LONG":"103.953073684311"},"geometry":{"type":"Point","coordinates":[103.953074,1.342983]}},{"type":"Feature","properties":{"Club":"Tampines East, Tampines Mart","Address":"9 Tampines Street 32 #02-01 Tampines Mart\nSingapore, South East\n","Contact":"+65 9017 3533","LAT":"1.35449049330430","LONG":"103.960374199653"},"geometry":{"type":"Point","coordinates":[103.960374,1.35449]}},{"type":"Feature","properties":{"Club":"Loyang Point","Address":"258 PASIR RIS STREET 21, 05-03/04/05\nLoyang Point, North East\n","Contact":"+65 9023 9602","LAT":"1.36701300526843","LONG":"103.964542036433"},"geometry":{"type":"Point","coordinates":[103.964542,1.367013]}},{"type":"Feature","properties":{"Club":"Tampines North","Address":"2 Tampines Street 41, #01-03\nTampines North, North East\n","Contact":"+65 9865 1970","LAT":"1.35758214463788","LONG":"103.946589411297"},"geometry":{"type":"Point","coordinates":[103.946589,1.357582]}},{"type":"Feature","properties":{"Club":"Tampines Central","Address":"Tampines Central Community Complex, 866A Tampines Street 83, #03-10\nTampines Central, North East\n","Contact":"+65 9623 2183","LAT":"1.35565127068736","LONG":"103.934687089859"},"geometry":{"type":"Point","coordinates":[103.934687,1.355651]}},{"type":"Feature","properties":{"Club":"Tampines West","Address":"5 Tampines Ave 3\nSingapore, South East\n","Contact":"+65 8186 7478","LAT":"1.34900448119771","LONG":"103.935701141168"},"geometry":{"type":"Point","coordinates":[103.935701,1.349004]}},{"type":"Feature","properties":{"Club":"Pasit Ris E!Hub","Address":"E!Hub @ Downtown East, 1 Pasir Ris Close, #05-105\nPasir Ris, North East\n","Contact":"+65 8500 3193","LAT":"1.37663512712549","LONG":"103.955825976639"},"geometry":{"type":"Point","coordinates":[103.955826,1.376635]}},{"type":"Feature","properties":{"Club":"Elias CC","Address":"93 Pasir Ris Drive 3 #01-05 Pasir Ris Elias Community Centre\nPasir Ris Elias, North East\n\n","Contact":"+65 8869 1517","LAT":"1.37834706887466","LONG":"103.942553098864"},"geometry":{"type":"Point","coordinates":[103.942553,1.378347]}},{"type":"Feature","properties":{"Club":"Bedok South, Bedok CC","Address":"Bedok community center, 850 , #02-22, New Upper Changi Road\nBedok South, South West\n","Contact":"+65 8809 2291","LAT":"1.32448464840448","LONG":"103.936066807945"},"geometry":{"type":"Point","coordinates":[103.936067,1.324485]}},{"type":"Feature","properties":{"Club":"Bedok Central","Address":"445 Bedok North Street 1 #03-01 Djitsun Mall Bedok\nSingapore, Central Singapore\n","Contact":"+65 8168 1012","LAT":"1.32612715916382","LONG":"103.929438750396"},"geometry":{"type":"Point","coordinates":[103.929439,1.326127]}},{"type":"Feature","properties":{"Club":"Punggol Oasis","Address":"681 Punggol Drive, Oasis Terraces, #01-16\nPunggol Oasis, North East\n","Contact":"+65 8869 6622","LAT":"1.40248828082515","LONG":"103.913202197804"},"geometry":{"type":"Point","coordinates":[103.913202,1.402488]}},{"type":"Feature","properties":{"Club":"Sengkang Rivervale","Address":"11 Rivervale Crescent, Rivervale Mall, #02-01\nSengkang Rivervale, North East\n","Contact":"+65 8868 0210","LAT":"1.39226474339638","LONG":"103.904777241982"},"geometry":{"type":"Point","coordinates":[103.904777,1.392265]}},{"type":"Feature","properties":{"Club":"SKH Campus","Address":"Sengkang Community Hospital, 1 Anchorvale Street #01-29\nSengkang, North East\n","Contact":"+65 9773 0829","LAT":"1.39647734673927","LONG":"103.891041003098"},"geometry":{"type":"Point","coordinates":[103.891041,1.396477]}},{"type":"Feature","properties":{"Club":"Kembangan","Address":"398 Changi Rd, #01-03 to #01-06\nKembangan, South East\n","Contact":"+65 8127 9885","LAT":"1.31900350087204","LONG":"103.911392868968"},"geometry":{"type":"Point","coordinates":[103.911393,1.319004]}},{"type":"Feature","properties":{"Club":"Marine Parade","Address":"Blk 86 Marine Parade Central #01-670\nSingapore, South East\n","Contact":"+65 8608 4683","LAT":"1.30183515073390","LONG":"103.906698211297"},"geometry":{"type":"Point","coordinates":[103.906698,1.301835]}},{"type":"Feature","properties":{"Club":"Paya Lebar","Address":"11 Tanjong Katong Road, #02-01/02 ONE KM Mall\nSingapore, South East\n","Contact":"+65 9154 4755","LAT":"1.31499024931825","LONG":"103.894723211297"},"geometry":{"type":"Point","coordinates":[103.894723,1.31499]}},{"type":"Feature","properties":{"Club":"Macpherson","Address":"MacPherson Community Club 400 Paya Lebar Way\nSingapore, South East\n","Contact":"+65 9340 6233","LAT":"1.32387924835370","LONG":"103.884883130339"},"geometry":{"type":"Point","coordinates":[103.884883,1.323879]}},{"type":"Feature","properties":{"Club":"Nex","Address":"23 Serangoon Central, #04-73/74/75 nex\nSerangoon Central, Central Singapore\n","Contact":"+65 6555 3400","LAT":"1.35117194193665","LONG":"103.872425855475"},"geometry":{"type":"Point","coordinates":[103.872426,1.351172]}},{"type":"Feature","properties":{"Club":"Kovan","Address":"JForte Sportainment Centre Level 2 50 Hougang Ave 1, Singapore 538885\nSingapore, North East\n","Contact":"+65 6280 8800","LAT":"1.36050743895836","LONG":"103.888277462402"},"geometry":{"type":"Point","coordinates":[103.888277,1.360507]}},{"type":"Feature","properties":{"Club":"Hougang CC","Address":"Hougang Community Club, 35 Hougang Ave 3\nHougang CC, North East\n","Contact":"+65 9771 6693","LAT":"1.36494532119222","LONG":"103.892313740133"},"geometry":{"type":"Point","coordinates":[103.892314,1.364945]}},{"type":"Feature","properties":{"Club":"Hougang Central","Address":"1187 Upper Serangoon Road #B1-01 The Midtown\nHougang Central 2, Central Singapore\n","Contact":"+65 9275 6373","LAT":"1.36972245322801","LONG":"103.894012229308"},"geometry":{"type":"Point","coordinates":[103.894012,1.369722]}},{"type":"Feature","properties":{"Club":"Buangkok","Address":"Hougang Green Shopping Mall, 21 Hougang Street 51 #02-13A\nSingapore, Central Singapore\n","Contact":"+65 8555 3059","LAT":"1.37987226495211","LONG":"103.888214797804"},"geometry":{"type":"Point","coordinates":[103.888215,1.379872]}},{"type":"Feature","properties":{"Club":"Greenwich","Address":"1 Seletar Road #02-05/06 Greenwich V Singapore\nSingapore, North East\n","Contact":"+65 9898 7161","LAT":"1.38762791555631","LONG":"103.869460541982"},"geometry":{"type":"Point","coordinates":[103.869461,1.387628]}},{"type":"Feature","properties":{"Club":"Hwi Yoh","Address":"23 Serangoon North Ave 4, #01-01\nHwi Yoh, North East\n","Contact":"+65 8363 5076","LAT":"1.37469239421430","LONG":"103.873672397804"},"geometry":{"type":"Point","coordinates":[103.873672,1.374692]}},{"type":"Feature","properties":{"Club":"Serangoon Gardens","Address":"53 Serangoon Garden Way\nSerangoon Gardens, Central Singapore\n","Contact":"+65 8767 6016","LAT":"1.36327066639607","LONG":"103.865858676631"},"geometry":{"type":"Point","coordinates":[103.865859,1.363271]}},{"type":"Feature","properties":{"Club":"New Tech Park","Address":"151 Lorong Chuan #01-12\nNew Tech Park, North East \n","Contact":"+65 8874 1521","LAT":"1.35226206783009","LONG":"103.861304519826"},"geometry":{"type":"Point","coordinates":[103.861305,1.352262]}},{"type":"Feature","properties":{"Club":"Ang Mo Kio","Address":"Broadway Plaza, 4190 Ang Mo Kio Avenue 6 #01-02\nSingapore, North East\n","Contact":"+65 8388 5213","LAT":"1.37210280964298","LONG":"103.845781928762"},"geometry":{"type":"Point","coordinates":[103.845782,1.372103]}},{"type":"Feature","properties":{"Club":"Marymount CC","Address":"191 Sin Ming Avenue, #03-01\nMarymount Community Club, South West\n","Contact":"+65 9863 5657","LAT":"1.36149258686257","LONG":"103.841537950323"},"geometry":{"type":"Point","coordinates":[103.841538,1.361493]}},{"type":"Feature","properties":{"Club":"Upper Thomson","Address":"#01-01 246R, Upper Thomson Road\nUpper Thomson, Central Singapore\n","Contact":"+65 9663 0246","LAT":"1.35387933149024","LONG":"103.834251392998"},"geometry":{"type":"Point","coordinates":[103.834251,1.353879]}},{"type":"Feature","properties":{"Club":"Toa Payoh","Address":"BLK 190 Lorong 6 Toa Payoh #02-516\nSingapore, Central Singapore\n","Contact":"+65 8379 8092","LAT":"1.33336435104554","LONG":"103.849384011297"},"geometry":{"type":"Point","coordinates":[103.849384,1.333364]}},{"type":"Feature","properties":{"Club":"Balestier","Address":"288 Balestier road\nBalestier, Central Singapore\n","Contact":"+65 8714 9366","LAT":"1.32307711855853","LONG":"103.852911486160"},"geometry":{"type":"Point","coordinates":[103.852911,1.323077]}},{"type":"Feature","properties":{"Club":"Boon Keng","Address":"294A/B Lavender Street Singapore 338807\nBoon Keng, Central Singapore\n","Contact":"+65 8388 3512","LAT":"1.31509767531765","LONG":"103.859922682461"},"geometry":{"type":"Point","coordinates":[103.859923,1.315098]}},{"type":"Feature","properties":{"Club":"Jalan Besar","Address":"Rehau Building, 1 King George's Avenue #01-00\nJalan Besar, Central Singapore\n","Contact":"+65 9788 9620","LAT":"1.30733729805513","LONG":"103.858723555475"},"geometry":{"type":"Point","coordinates":[103.858724,1.307337]}},{"type":"Feature","properties":{"Club":"Novena","Address":"275 Thomson Road #01-39, #01-40, #01-41, #01-42 Novena Regency\nNovena, Central Singapore\n","Contact":"+65 8877 7748","LAT":"1.32125201414441","LONG":"103.841830391621"},"geometry":{"type":"Point","coordinates":[103.84183,1.321252]}},{"type":"Feature","properties":{"Club":"Stevens","Address":"383 Bukit Timah Road\nStevens, South East\n","Contact":"+65 9658 5676","LAT":"1.31981244879579","LONG":"103.827390138283"},"geometry":{"type":"Point","coordinates":[103.82739,1.319812]}},{"type":"Feature","properties":{"Club":"Valley Point","Address":"Valley Point Shopping Centre 491 River Valley Road, #02-02\nRiver Valley, Central Singapore\n","Contact":"+65 8695 1910","LAT":"1.29362929940490","LONG":"103.827216026639"},"geometry":{"type":"Point","coordinates":[103.827216,1.293629]}},{"type":"Feature","properties":{"Club":"Tiong Bahru Plaza","Address":"302 Tiong Bahru Road #01-128/129 Tiong Bahru Plaza\nTiong Bahru Plaza, South West\n","Contact":"+65 8686 4340","LAT":"1.28649393877943","LONG":"103.826531684311"},"geometry":{"type":"Point","coordinates":[103.826532,1.286494]}},{"type":"Feature","properties":{"Club":"Tanjong Pagar","Address":"10 Anson Road, International Plaza, #03-41\nSingapore, Central Singapore\n","Contact":"+65 9477 1182","LAT":"1.27630877491511","LONG":"103.845823767119"},"geometry":{"type":"Point","coordinates":[103.845824,1.276309]}},{"type":"Feature","properties":{"Club":"Upper Cross Street","Address":"531 Upper Cross Street #01-07, Hong Lim Complex\nSingapore, South East\n","Contact":"+65 9835 1152","LAT":"1.28422074347186","LONG":"103.845793167119"},"geometry":{"type":"Point","coordinates":[103.845793,1.284221]}},{"type":"Feature","properties":{"Club":"Cecil Street","Address":"20 Cecil Street, #04-03/04/05 Plus\nCecil Street, South East\n","Contact":"+65 8877 7748","LAT":"1.28320924812906","LONG":"103.850520297804"},"geometry":{"type":"Point","coordinates":[103.85052,1.283209]}},{"type":"Feature","properties":{"Club":"Cantonment","Address":"17 Cantonment Road\nCantonment Road, South West\n","Contact":"+65 9386 6950","LAT":"1.27942942695033","LONG":"103.840159268968"},"geometry":{"type":"Point","coordinates":[103.840159,1.279429]}},{"type":"Feature","properties":{"Club":"HarbourFront","Address":"3 HarbourFront Place, Unit #01-01\nHabourFront, South East\n","Contact":"+65 9150 6564","LAT":"1.26506326617789","LONG":"103.818709424790"},"geometry":{"type":"Point","coordinates":[103.818709,1.265063]}},{"type":"Feature","properties":{"Club":"Telok Blangah","Address":"Blk 78B Telok Blangah Street 32 #02-15\nTelok Blangah, South West\n","Contact":"+65 8781 7425","LAT":"1.27385944421558","LONG":"103.808368568968"},"geometry":{"type":"Point","coordinates":[103.808369,1.273859]}},{"type":"Feature","properties":{"Club":"Pasir Panjang","Address":"44 Pasir Panjang Road Blocks A & B #01\nSingapore, South West\n","Contact":"+65 9839 6017","LAT":"1.27550938441766","LONG":"103.794386299654"},"geometry":{"type":"Point","coordinates":[103.794386,1.275509]}},{"type":"Feature","properties":{"Club":"Queensway","Address":"Queensway Shopping Centre, 1 Queensway #03-51 Singapore\nSingapore, Central Singapore\n","Contact":"+65 9150 9498","LAT":"1.28796510538469","LONG":"103.803222961570"},"geometry":{"type":"Point","coordinates":[103.803223,1.287965]}},{"type":"Feature","properties":{"Club":"Buona Vista","Address":"11 #01-04/05, #01-06/07 HELIOS, BIOPOLIS WAY\nBuona Vista, South West","Contact":"+65 8588 3815","LAT":"1.30459518143849","LONG":"103.791672955475"},"geometry":{"type":"Point","coordinates":[103.791673,1.304595]}},{"type":"Feature","properties":{"Club":"West Coast","Address":"West Coast Plaza 154 West Coast Road\nWest Coast, South West\n","Contact":"+65 6779 4276","LAT":"1.30379970002361","LONG":"103.766447437659"},"geometry":{"type":"Point","coordinates":[103.766447,1.3038]}},{"type":"Feature","properties":{"Club":"Clementi City","Address":"3151 Commonwealth Avenue, West #03-01\nSingapore, South West\n","Contact":"+65 8869 2174","LAT":"1.31473549699126","LONG":"103.765084007269"},"geometry":{"type":"Point","coordinates":[103.765084,1.314735]}},{"type":"Feature","properties":{"Club":"Bukit Timah ","Address":"Bukit Timah Shopping Centre #B1-01, 170 Upper Bukit Timah Road\nBukit Timah, Central Singapore\n","Contact":"+65 8129 0889","LAT":"1.34358744252766","LONG":"103.775920393347"},"geometry":{"type":"Point","coordinates":[103.77592,1.343587]}},{"type":"Feature","properties":{"Club":"HillV2","Address":"4 Hillview Rise #02-18/19 HillV2\nSingapore, Central Singapore\n","Contact":"+65 6266 4426","LAT":"1.36325626660254","LONG":"103.764191240132"},"geometry":{"type":"Point","coordinates":[103.764191,1.363256]}},{"type":"Feature","properties":{"Club":"CSC Bukit Batok","Address":"91 Bukit Batok West Ave 2, Block C, #05-01\nBukit Batok, South West\n","Contact":"+65 9177 2029","LAT":"1.35275658332405","LONG":"103.749889370818"},"geometry":{"type":"Point","coordinates":[103.749889,1.352757]}},{"type":"Feature","properties":{"Club":"Choa Chu Kang","Address":"190 Choa Chu Kang Avenue 1\nChoa Chu Kang, North West\n","Contact":"+65 9040 8302","LAT":"1.37712301670279","LONG":"103.745351514996"},"geometry":{"type":"Point","coordinates":[103.745352,1.377123]}},{"type":"Feature","properties":{"Club":"Taman Jurong","Address":"1 Yung Sheng Road, #01-02 Taman Jurong Community Club\nSingapore, South West\n","Contact":"+65 9231 0102","LAT":"1.33549996931520","LONG":"103.721524438283"},"geometry":{"type":"Point","coordinates":[103.721524,1.3355]}},{"type":"Feature","properties":{"Club":"Jurong Point","Address":"Jurong Point, 1 Jurong West Central 2\nJurong Point, South West\n","Contact":"+65 8886 2262","LAT":"1.34022836525000","LONG":"103.706182399653"},"geometry":{"type":"Point","coordinates":[103.706182,1.340228]}},{"type":"Feature","properties":{"Club":"Boon Lay","Address":"221 Boon Lay Place, #03-106. Singapore 640221\nBoon Lay, South West\n","Contact":"+65 8399 7850","LAT":"1.34614292839831","LONG":"103.712260372667"},"geometry":{"type":"Point","coordinates":[103.71226,1.346143]}},{"type":"Feature","properties":{"Club":"Pioneer Mall","Address":"638 Jurong West Street 61 #03--1 Pioneer Mall\nPioneer Mall, South West","Contact":"+65 8500 4500","LAT":"1.34184083922706","LONG":"103.696985795954"},"geometry":{"type":"Point","coordinates":[103.696986,1.341841]}},{"type":"Feature","properties":{"Club":"Nanyang","Address":"Nanyang Community Club Building 60 Jurong West Street 91, #01-08\nJurong West, South West\n","Contact":"+65 9475 5480","LAT":"1.34247715530128","LONG":"103.692501962222"},"geometry":{"type":"Point","coordinates":[103.692502,1.342477]}},{"type":"Feature","properties":{"Club":"Yew Tee","Address":"03-20 Choa Chu Kang St. 52 Yew Tee Community Club\nYew Tee, North East\n","Contact":"+65 8533 3784","LAT":"1.39505658645623","LONG":"103.744667882461"},"geometry":{"type":"Point","coordinates":[103.744668,1.395057]}},{"type":"Feature","properties":{"Club":"Woodlands","Address":"ACE The Place Community Club 120 Woodlands Avenue 1 , #02-01\nWoodlands, North West\n","Contact":"+65 8123 0201","LAT":"1.42775606826866","LONG":"103.792227415389"},"geometry":{"type":"Point","coordinates":[103.792227,1.427756]}},{"type":"Feature","properties":{"Club":"Admiralty","Address":"31 Woodlands Avenue 6, #05-01/02 Woodlands Galaxy Community Club\nAdmiralty, North East\n","Contact":"+65 8414 8938","LAT":"1.43904990456583","LONG":"103.802657221587"},"geometry":{"type":"Point","coordinates":[103.802657,1.43905]}},{"type":"Feature","properties":{"Club":"Woodgrove","Address":"30, Woodlands Avenue 01-20/21/22 The Woodgrove,\nWoodgrove, North West\n","Contact":"+65 8711 9300","LAT":"1.42959564036982","LONG":"103.780886226639"},"geometry":{"type":"Point","coordinates":[103.780886,1.429596]}},{"type":"Feature","properties":{"Club":"Woods Square","Address":"8 Woodlands Square #02-12, SOLO 2\nWoods Square, North East","Contact":"+65 9325 8828","LAT":"1.43500103386207","LONG":"103.785775055475"},"geometry":{"type":"Point","coordinates":[103.785775,1.435001]}},{"type":"Feature","properties":{"Club":"Sembawang","Address":"#02-14 Sembawang Shopping Centre, 604 Sembawang Road\nSingapore, North West\n","Contact":"+65 9817 5045","LAT":"1.44190290422073","LONG":"103.825256514996"},"geometry":{"type":"Point","coordinates":[103.825257,1.441903]}},{"type":"Feature","properties":{"Club":"Wisteria","Address":"598 Yishun Ring Road, Wisteria Mall, B1-26/27\nWisteria, North West\n","Contact":"+65 9615 5678","LAT":"1.41837838660084","LONG":"103.841174740132"},"geometry":{"type":"Point","coordinates":[103.841175,1.418378]}},{"type":"Feature","properties":{"Club":"Northpoint City","Address":"1 Northpoint Drive, #02-175-178, South Wing of Northpoint City\nYishun, North East\n","Contact":"+65 6481 4737","LAT":"1.42831518150431","LONG":"103.835957955475"},"geometry":{"type":"Point","coordinates":[103.835958,1.428315]}},{"type":"Feature","properties":{"Club":"Junction 9","Address":"Junction 9 Shopping Mall, 18 Yishun Avenue 9, 768897\nYishun, North East\n","Contact":"+65 9109 8188","LAT":"1.43351771812049","LONG":"103.841620976366"},"geometry":{"type":"Point","coordinates":[103.841621,1.433518]}}]}
